City_ID,City,Lat,Lng,Max Temp,Humidity,Cloudiness,Wind Speed,Country,Date
0,albany,42.6001,-73.9662,6.48,72,100,1.34,US,1675042085
1,san carlos de bariloche,-41.1456,-71.3082,21.86,40,20,10.29,AR,1675042086
2,hobart,-42.8794,147.3294,25.03,53,40,2.57,AU,1675041994
3,vaini,-21.2,-175.2,29.09,84,40,3.6,TO,1675042000
4,souillac,-20.5167,57.5167,23.21,94,20,1.54,MU,1675042055
5,rikitea,-23.1203,-134.9692,26.15,72,9,3.81,PF,1675041794
6,hilo,19.7297,-155.09,22.57,88,20,0.89,US,1675042020
7,cherskiy,68.75,161.3,-17.16,90,100,2.21,RU,1675042088
8,san cristobal,7.7669,-72.225,20.1,82,82,0.88,VE,1675042052
9,busselton,-33.65,115.3333,25.26,43,7,4.75,AU,1675041998
10,sorland,67.667,12.6934,2.92,70,100,12.09,NO,1675042089
11,constitucion,-35.3333,-72.4167,14.76,94,64,5.88,CL,1675042089
12,pevek,69.7008,170.3133,-13.31,89,100,1.5,RU,1675042070
13,bairiki,1.3292,172.9752,30.0,79,40,4.12,KI,1675042090
14,kapaa,22.0752,-159.319,24.99,58,75,11.32,US,1675042002
15,mataura,-46.1927,168.8643,24.04,48,100,2.17,NZ,1675041998
16,saint george,37.1041,-113.5841,11.33,34,0,3.09,US,1675042025
17,ribeira grande,38.5167,-28.7,12.65,86,49,3.13,PT,1675042091
18,merrill,45.1805,-89.6835,-16.47,60,0,2.57,US,1675042091
19,barrow,71.2906,-156.7887,-20.99,84,100,5.14,US,1675042092
20,chapais,49.7834,-74.8492,-26.12,99,97,0.74,CA,1675042093
21,hermanus,-34.4187,19.2345,18.22,71,86,9.08,ZA,1675042007
22,jining,35.405,116.5814,2.86,36,0,4.6,CN,1675042093
23,provideniya,64.3833,-173.3,-0.94,86,100,7.0,RU,1675042005
24,ushuaia,-54.8,-68.3,9.81,66,20,4.63,AR,1675041922
25,avarua,-21.2078,-159.775,24.03,94,100,3.6,CK,1675042017
26,snasa,64.2457,12.3778,0.67,98,100,4.23,NO,1675042094
27,alta floresta,-9.8756,-56.0861,21.25,98,45,1.23,BR,1675042095
28,brodokalmak,55.5748,62.082,-7.5,99,71,2.53,RU,1675042095
29,kapoeta,4.7717,33.5903,27.26,28,11,3.35,SS,1675041933
30,kirkwall,58.9848,-2.9587,5.03,75,20,12.35,GB,1675042096
31,harper,4.375,-7.7169,25.4,86,100,2.68,LR,1675042097
32,north myrtle beach,33.816,-78.68,14.5,91,100,1.54,US,1675041855
33,pekan,3.4836,103.3996,23.06,93,100,6.11,MY,1675042097
34,marsh harbour,26.5412,-77.0636,23.64,83,3,7.44,BS,1675042098
35,hamilton,39.1834,-84.5333,6.47,93,100,4.12,US,1675041328
36,dawson creek,55.7666,-120.2362,-6.2,53,100,4.63,CA,1675042099
37,jawhar,2.7809,45.5005,22.14,84,84,5.39,SO,1675042099
38,deming,32.2687,-107.7586,12.94,16,0,5.66,US,1675042100
39,kodiak,57.79,-152.4072,3.73,100,100,3.09,US,1675042042
40,caxito,-8.5785,13.6643,24.88,88,100,0.8,AO,1675042101
41,jamestown,42.097,-79.2353,0.57,97,100,4.63,US,1675041890
42,touros,-5.1989,-35.4608,26.57,71,12,6.29,BR,1675042102
43,grindavik,63.8424,-22.4338,-1.03,86,40,3.6,IS,1675042102
44,qaanaaq,77.484,-69.3632,-24.14,72,33,2.72,GL,1675042051
45,luderitz,-26.6481,15.1594,14.54,92,0,3.81,NA,1675042103
46,kidal,18.4411,1.4078,14.05,8,100,4.85,ML,1675042103
47,ust-koksa,50.2696,85.6108,-17.98,94,38,0.33,RU,1675042104
48,hithadhoo,-0.6,73.0833,27.3,74,100,4.1,MV,1675041996
49,bilma,18.6853,12.9164,20.52,13,27,3.9,NE,1675042105
50,yulara,-25.2406,130.9889,26.0,57,100,4.47,AU,1675042105
51,craigieburn,-37.6,144.95,20.74,70,75,6.17,AU,1675042106
52,yumen,40.2833,97.2,-7.52,34,0,4.51,CN,1675042106
53,punta arenas,-53.15,-70.9167,10.06,76,75,3.6,CL,1675041919
54,magistralnyy,56.1725,107.4458,-8.36,85,100,2.63,RU,1675042107
55,valle hermoso,25.6667,-97.8333,22.94,84,0,7.11,MX,1675042108
56,saskylakh,71.9167,114.0833,-41.28,99,63,2.12,RU,1675042056
57,faanui,-16.4833,-151.75,27.51,73,19,5.12,PF,1675042074
58,lompoc,34.6391,-120.4579,10.56,85,100,4.02,US,1675042063
59,bethanien,-26.502,17.1583,22.86,31,0,1.32,NA,1675042109
60,bluff,-46.6,168.3333,16.35,89,100,2.85,NZ,1675042048
61,mercedes,-34.6515,-59.4307,23.13,64,0,3.94,AR,1675042042
62,norman wells,65.282,-126.8329,-8.98,73,75,4.63,CA,1675042044
63,seoul,37.5683,126.9778,-0.22,42,0,2.06,KR,1675041972
64,abu samrah,35.3029,37.1841,7.88,88,21,2.23,SY,1675042111
65,biak,-0.9131,122.8766,26.8,70,100,0.44,ID,1675042111
66,sarany,58.5,58.8833,-12.68,94,100,4.81,RU,1675042112
67,carnarvon,-24.8667,113.6333,24.71,73,0,4.79,AU,1675042112
68,beloha,-25.1667,45.05,21.75,98,28,2.16,MG,1675042113
69,isangel,-19.55,169.2667,29.26,70,100,0.89,VU,1675042114
70,college,64.8569,-147.8028,-0.44,93,75,2.57,US,1675042114
71,saint-philippe,-21.3585,55.7679,25.77,83,99,1.29,RE,1675042056
72,nome,64.5011,-165.4064,0.65,93,100,10.29,US,1675041929
73,orocue,4.7912,-71.3354,26.63,37,7,2.52,CO,1675042115
74,puerto ayora,-0.7393,-90.3518,25.31,95,70,2.29,EC,1675042027
75,new norfolk,-42.7826,147.0587,24.84,43,0,0.45,AU,1675042029
76,mumbwa,-14.9783,27.0619,17.27,84,100,0.95,ZM,1675042116
77,phonhong,18.5007,102.4166,13.74,63,6,0.74,LA,1675042116
78,thompson,55.7435,-97.8558,-30.91,76,20,1.54,CA,1675042002
79,cape town,-33.9258,18.4232,20.21,63,0,5.81,ZA,1675042011
80,ponta do sol,32.6667,-17.1,14.28,65,84,3.21,PT,1675042117
81,paka,4.6374,103.4368,25.96,78,40,4.12,MY,1675042118
82,karasjok,69.4719,25.5112,-16.49,97,98,0.6,NO,1675042118
83,sitka,57.0531,-135.33,3.94,75,75,1.54,US,1675042119
84,san quintin,30.4833,-115.95,13.8,71,100,2.43,MX,1675042119
85,saravan,39.7196,45.6483,-5.69,92,92,1.77,AM,1675042120
86,vestmannaeyjar,63.4427,-20.2734,-0.03,79,6,5.83,IS,1675042047
87,brae,60.3964,-1.353,5.71,69,100,13.54,GB,1675042121
88,petropavlovsk-kamchatskiy,53.0452,158.6483,1.33,48,75,9.0,RU,1675041928
89,ritchie,-29.038,24.6028,19.81,45,0,6.02,ZA,1675042122
90,zyryanka,65.75,150.85,-29.21,98,100,9.02,RU,1675042123
91,victoria,22.2855,114.1577,15.69,43,6,2.24,HK,1675041964
92,fairbanks,64.8378,-147.7164,-0.43,92,75,2.57,US,1675041845
93,solano,38.2333,-121.9511,8.53,77,100,6.69,US,1675042123
94,rio gallegos,-51.6226,-69.2181,16.03,59,75,2.06,AR,1675042124
95,port alfred,-33.5906,26.891,15.66,83,79,4.57,ZA,1675042035
96,pocosol,10.3667,-84.6167,21.82,96,100,2.94,CR,1675042125
97,kuito,-12.3833,16.9333,15.04,93,100,1.35,AO,1675042125
98,longyearbyen,78.2186,15.6401,-4.09,63,75,12.35,SJ,1675042126
99,lewistown,40.5992,-77.5714,7.41,87,100,0.0,US,1675042126
100,castro,-24.7911,-50.0119,17.6,96,100,1.87,BR,1675041999
101,ghanzi,-21.5667,21.7833,20.68,70,33,2.99,BW,1675042127
102,buala,-8.145,159.5921,25.4,91,100,2.21,SB,1675042127
103,yinchuan,38.4681,106.2731,-4.12,22,0,0.53,CN,1675042075
104,khatanga,71.9667,102.5,-41.79,100,63,1.22,RU,1675042128
105,upernavik,72.7868,-56.1549,-19.81,66,95,3.77,GL,1675042011
106,maldonado,-34.6667,-54.9167,21.79,78,50,4.24,UY,1675042129
107,saldanha,-33.0117,17.9442,17.24,68,1,4.04,ZA,1675042054
108,bengkulu,-3.8004,102.2655,25.06,84,100,2.01,ID,1675042057
109,bredasdorp,-34.5322,20.0403,18.27,68,100,7.41,ZA,1675042075
110,zhanakorgan,43.9098,67.2495,-2.49,53,97,1.85,KZ,1675042131
111,norrtalje,59.758,18.705,5.8,89,100,8.03,SE,1675042131
112,quang ngai,15.1167,108.8,16.61,85,100,3.1,VN,1675042132
113,sur,22.5667,59.5289,17.93,59,0,1.59,OM,1675042132
114,comodoro rivadavia,-45.8667,-67.5,20.92,56,0,1.03,AR,1675042133
115,san ramon,37.7799,-121.978,8.17,87,100,4.63,US,1675042133
116,evensk,61.95,159.2333,-2.67,88,100,16.88,RU,1675042134
117,ossora,59.2353,163.0719,-0.07,88,100,12.62,RU,1675042134
118,talnakh,69.4865,88.3972,-21.16,100,100,0.32,RU,1675042061
119,dikson,73.5069,80.5464,-33.92,96,44,1.24,RU,1675042017
120,port elizabeth,-33.918,25.5701,16.84,71,40,2.06,ZA,1675042135
121,kaeo,-35.1,173.7833,21.29,95,100,5.88,NZ,1675042056
122,ahipara,-35.1667,173.1667,19.03,94,100,6.27,NZ,1675042003
123,hofn,64.2539,-15.2082,-1.76,65,8,7.08,IS,1675042136
124,haines junction,60.7522,-137.5108,-8.04,94,100,0.21,CA,1675042136
125,kuala lipis,4.1842,102.0468,21.51,100,100,0.48,MY,1675042137
126,bethel,41.3712,-73.414,8.27,69,100,2.06,US,1675041927
127,diamantino,-14.4086,-56.4461,21.58,94,17,1.64,BR,1675042138
128,bathsheba,13.2167,-59.5167,23.34,78,20,3.6,BB,1675042000
129,puerto colombia,10.9878,-74.9547,25.05,81,12,12.24,CO,1675042139
130,dapaong,10.8639,0.205,24.46,12,65,3.06,TG,1675042139
131,labuhan,-6.8844,112.2051,26.03,86,100,5.54,ID,1675042140
132,tasiilaq,65.6145,-37.6368,-6.91,89,100,2.54,GL,1675042071
133,micheweni,-4.9667,39.8333,25.83,77,72,3.16,TZ,1675042140
134,horqueta,-23.3428,-57.0597,25.0,78,6,1.77,PY,1675042141
135,codrington,-38.2667,141.9667,19.58,52,100,4.53,AU,1675042142
136,odweyne,9.4092,45.064,17.64,58,0,2.24,SO,1675042143
137,ulaangom,49.9811,92.0667,-27.94,92,93,0.92,MN,1675042143
138,mahebourg,-20.4081,57.7,25.14,94,20,1.54,MU,1675042057
139,kisaran,2.9845,99.6158,23.72,95,100,1.94,ID,1675042144
140,butaritari,3.0707,172.7902,27.28,79,0,9.61,KI,1675041995
141,buzmeyin,38.0507,58.2056,1.85,69,75,1.03,TM,1675042145
142,martapura,-3.4167,114.85,25.05,94,20,1.54,ID,1675042146
143,butka,56.7179,63.7866,-13.3,94,100,3.3,RU,1675042147
144,launceston,-41.45,147.1667,23.67,55,75,2.06,AU,1675042149
145,georgetown,5.4112,100.3354,27.96,76,20,1.54,MY,1675041746
146,cabo san lucas,22.8909,-109.9124,20.84,78,20,3.09,MX,1675042150
147,nigel,-26.4314,28.4771,16.88,95,100,4.79,ZA,1675042150
148,torbay,47.6666,-52.7314,-2.56,70,20,3.6,CA,1675042152
149,xuddur,4.1213,43.8894,20.02,79,5,7.46,SO,1675042152
150,kavieng,-2.5744,150.7967,29.25,70,54,4.0,PG,1675042153
151,ixtapa,20.7,-105.2,24.01,78,0,4.12,MX,1675041975
152,ilulissat,69.2167,-51.1,-6.99,49,100,12.35,GL,1675042154
153,atambua,-9.1061,124.8925,27.47,73,99,0.73,ID,1675042154
154,kaitangata,-46.2817,169.8464,19.71,70,100,4.09,NZ,1675042077
155,matara,5.9485,80.5353,21.63,87,54,1.67,LK,1675041963
156,uvat,59.1433,68.8953,-13.01,96,100,3.27,RU,1675042156
157,mana,5.6592,-53.7767,23.72,90,15,3.62,GF,1675042156
158,atuona,-9.8,-139.0333,26.06,77,17,7.97,PF,1675042049
159,harindanga,22.0383,88.3214,15.7,43,0,2.75,IN,1675042157
160,peniche,39.3558,-9.3811,7.47,71,0,4.23,PT,1675042013
161,pisco,-13.7,-76.2167,23.03,83,20,6.69,PE,1675041948
162,airai,-8.9266,125.4092,21.43,73,97,0.28,TL,1675042158
163,bereda,43.2686,-7.5406,0.08,100,98,1.26,ES,1675042159
164,salalah,17.0151,54.0924,18.05,39,0,4.12,OM,1675042160
165,caloundra,-26.8,153.1333,31.18,70,79,3.13,AU,1675042161
166,acapulco,16.8634,-99.8901,27.9,69,0,3.6,MX,1675042162
167,mar del plata,-38.0023,-57.5575,21.72,78,0,8.49,AR,1675042036
168,damaturu,11.747,11.9608,24.46,19,99,2.28,NG,1675042163
169,suntar,62.1444,117.6319,-28.24,98,100,1.83,RU,1675042164
170,simao,22.7886,100.9748,8.73,88,1,0.49,CN,1675042165
171,fukue,32.6881,128.8419,6.2,56,40,6.69,JP,1675042166
172,bergen,60.392,5.328,5.64,79,75,4.63,NO,1675042166
173,adrar,20.5022,-10.0711,12.89,48,92,4.15,MR,1675042167
174,asau,46.4333,26.4,-6.49,94,28,2.26,RO,1675042167
175,roald,62.5833,6.1333,5.97,81,75,10.29,NO,1675042168
176,svetlogorsk,52.6333,29.7333,-2.26,90,100,4.95,BY,1675042169
177,hobyo,5.3505,48.5268,24.22,77,30,8.77,SO,1675042062
178,kondopoga,62.2057,34.2614,-0.17,87,100,5.21,RU,1675042170
179,kuching,1.55,110.3333,27.23,97,40,1.54,MY,1675042048
180,dumas,35.8656,-101.9732,-9.92,92,100,4.12,US,1675042043
181,kungurtug,50.5994,97.5228,-20.21,96,100,0.52,RU,1675042171
182,port said,31.2565,32.2841,16.65,63,0,3.88,EG,1675042171
183,lagoa,39.05,-27.9833,14.29,75,91,6.67,PT,1675042067
184,arraial do cabo,-22.9661,-42.0278,24.99,90,62,10.41,BR,1675042011
185,selfoss,63.9331,-20.9971,-4.98,84,8,3.41,IS,1675042173
186,itaquyry,-24.9333,-55.2167,21.16,99,100,0.83,PY,1675042173
187,pandan,14.0453,124.1694,24.92,90,100,9.34,PH,1675042174
188,jos,9.9167,8.9,21.04,52,100,0.58,NG,1675042174
189,yarada,17.65,83.2667,24.18,88,20,1.03,IN,1675042175
190,christchurch,-43.5333,172.6333,26.11,63,100,6.17,NZ,1675041954
191,chuy,-33.6971,-53.4616,21.65,79,46,4.76,UY,1675042009
192,daru,-9.0763,143.2092,29.96,70,40,1.07,PG,1675042176
193,kyaukse,21.6,96.1333,18.0,82,20,0.0,MM,1675042177
194,suvorovo,43.3333,27.6,0.19,83,100,1.6,BG,1675042178
195,san patricio,28.017,-97.5169,23.05,88,5,2.8,US,1675042178
196,chokurdakh,70.6333,147.9167,-35.68,98,100,1.84,RU,1675042179
197,hirara,24.8,125.2833,16.15,48,40,6.69,JP,1675042182
198,hay river,60.8156,-115.7999,-24.01,77,20,3.6,CA,1675042182
199,acarau,-2.8856,-40.12,25.28,84,9,4.34,BR,1675042183
200,chanal,16.7167,-92.4,10.55,84,3,0.73,MX,1675042183
201,severo-kurilsk,50.6789,156.125,-2.89,82,100,17.73,RU,1675042014
202,nikolskoye,59.7035,30.7861,-0.05,92,100,5.37,RU,1675042184
203,vila,42.0304,-8.1588,-1.51,87,6,1.52,PT,1675042184
204,apastovo,55.2029,48.5109,-8.97,96,100,3.1,RU,1675042185
205,udachnyy,66.4167,112.4,-37.53,73,97,1.05,RU,1675042186
206,soto la marina,23.7667,-98.2167,24.35,69,5,6.36,MX,1675042187
207,tanout,14.9709,8.8879,22.18,13,100,4.51,NE,1675042187
208,miyang,24.4042,103.4428,7.64,65,0,0.17,CN,1675042189
209,shumikha,55.2261,63.2961,-18.58,98,84,2.92,RU,1675042190
210,kupang,-10.1667,123.5833,29.32,79,40,2.57,ID,1675042190
211,waipawa,-41.4122,175.5153,23.66,61,100,2.03,NZ,1675042191
212,solomenskoye,44.2167,44.3528,0.2,93,100,2.03,RU,1675042192
213,burns lake,54.2331,-125.7533,-17.32,96,80,0.9,CA,1675042192
214,riyadh,24.6877,46.7219,12.08,42,15,2.36,SA,1675041916
215,makakilo city,21.3469,-158.0858,22.18,77,75,5.14,US,1675042193
216,pangnirtung,66.1451,-65.7125,-35.0,68,0,0.0,CA,1675042193
217,port lincoln,-34.7333,135.8667,18.97,61,43,4.61,AU,1675042194
218,okha,53.5739,142.9478,-24.75,87,79,7.15,RU,1675042195
219,fuxin,42.0156,121.6589,-6.13,50,9,1.12,CN,1675042195
220,kavaratti,10.5669,72.642,26.46,73,43,5.84,IN,1675042196
221,muroto,33.2833,134.15,8.04,68,49,7.56,JP,1675042197
222,bereznehuvate,47.3078,32.8499,-2.95,86,15,3.96,UA,1675042197
223,high level,58.5169,-117.136,-11.94,79,20,5.66,CA,1675041910
224,erzin,36.9559,36.2,9.25,85,100,2.06,TR,1675042198
225,moree,-29.4667,149.85,35.37,28,100,6.92,AU,1675042198
226,grajau,-5.8194,-46.1386,22.2,94,57,1.41,BR,1675042199
227,yellowknife,62.456,-114.3525,-28.58,69,20,5.66,CA,1675042037
228,kaseda,31.4167,130.3167,11.53,57,94,9.85,JP,1675042199
229,dunedin,-45.8742,170.5036,20.97,53,100,3.12,NZ,1675042200
230,burnie,-41.0667,145.9167,21.64,53,100,2.32,AU,1675042201
231,oktyabrskiy,54.4815,53.471,-15.16,98,98,2.89,RU,1675042202
232,athabasca,54.7169,-113.2854,-17.77,86,100,4.04,CA,1675042033
233,tiksi,71.6872,128.8694,-37.55,98,77,2.54,RU,1675042009
234,chokwe,-24.5333,32.9833,23.45,78,91,4.04,MZ,1675042205
235,tual,-5.6667,132.75,28.06,73,100,2.79,ID,1675042210
236,vilyuysk,63.7553,121.6247,-36.94,96,100,2.07,RU,1675042210
237,dryden,49.7833,-92.7503,-23.84,77,0,3.09,CA,1675042212
238,kampene,-3.6,26.6667,19.05,99,100,0.39,CD,1675042214
239,hohhot,40.8106,111.6522,-12.84,66,0,2.0,CN,1675042215
240,vysokogornyy,50.1167,139.15,-22.28,88,85,2.29,RU,1675042215
241,keetmanshoop,-26.5833,18.1333,21.81,35,0,3.91,NA,1675042218
242,mayumba,-3.432,10.6554,25.23,86,100,1.48,GA,1675042219
243,zaysan,47.4667,84.8667,-18.69,80,5,1.3,KZ,1675042220
244,saiha,22.4833,92.9667,19.21,51,1,1.06,IN,1675042223
245,talakan,50.3167,130.3667,-24.82,92,79,1.43,RU,1675042224
246,nokaneng,-19.6667,22.2667,20.12,77,62,1.35,BW,1675042225
247,znamenskoye,57.1281,73.8282,-16.1,97,45,2.34,RU,1675042227
248,marsa matruh,31.3525,27.2453,13.96,61,0,4.84,EG,1675042228
249,dzilam gonzalez,21.2833,-88.9333,24.24,76,56,3.16,MX,1675042229
250,ndola,-12.9587,28.6366,15.76,96,99,0.73,ZM,1675042229
251,beira,-19.8436,34.8389,25.4,87,29,4.21,MZ,1675042230
252,ubinskoye,55.3068,79.6802,-14.89,94,87,5.32,RU,1675042231
253,esperance,-33.8667,121.9,22.98,46,5,2.13,AU,1675042076
254,moa,20.6569,-74.9403,23.64,76,36,6.39,CU,1675042232
255,nelson bay,-32.7167,152.15,23.38,97,100,1.79,AU,1675042232
256,prince george,53.9166,-122.753,-14.1,67,0,1.03,CA,1675042233
257,elko,41.0002,-115.5012,-8.99,89,21,3.69,US,1675042234
258,burgersdorp,-30.9977,26.3286,10.11,75,0,1.55,ZA,1675042234
259,ulverstone,-41.15,146.1667,21.79,64,100,1.69,AU,1675042235
260,lipari,38.4674,14.954,10.71,59,9,3.81,IT,1675042236
261,buchanan,5.8808,-10.0467,25.25,90,78,1.83,LR,1675042017
262,kota bahru,6.1333,102.2386,26.13,88,40,2.57,MY,1675042237
263,balgazyn,51.0,95.2,-16.87,88,100,0.56,RU,1675042238
264,aripuana,-9.1667,-60.6333,21.06,99,100,0.25,BR,1675042239
265,atar,20.5169,-13.0499,14.76,43,89,3.83,MR,1675042240
266,lebu,-37.6167,-73.65,16.06,93,41,6.96,CL,1675042019
267,mangan,27.5167,88.5333,18.27,32,3,1.77,IN,1675042240
268,nagua,19.3832,-69.8474,22.33,86,28,3.36,DO,1675042210
269,tuktoyaktuk,69.4541,-133.0374,-28.0,76,40,2.06,CA,1675042241
270,gubskaya,44.3164,40.6358,3.43,95,100,1.07,RU,1675042242
271,alofi,-19.0595,-169.9187,27.94,78,88,3.09,NU,1675042242
272,bloomingdale,27.8936,-82.2404,23.45,74,0,2.06,US,1675042137
273,mackay,-21.15,149.2,32.05,67,68,2.82,AU,1675042243
274,kijang,35.2442,129.2139,2.85,27,0,5.8,KR,1675042244
275,aklavik,68.2191,-135.0107,-18.49,98,100,0.2,CA,1675042245
276,pyapon,16.2833,95.6833,26.19,53,4,3.46,MM,1675042245
277,olafsvik,64.8945,-23.7142,-2.03,73,43,1.97,IS,1675042246
278,brigantine,39.4101,-74.3646,8.9,75,75,2.57,US,1675042127
279,linxia,35.6003,103.2064,-2.99,49,0,0.7,CN,1675042247
280,narsaq,60.9167,-46.05,-12.88,70,100,3.56,GL,1675042037
281,finnsnes,69.2296,17.9811,-11.8,100,90,2.24,NO,1675042247
282,flin flon,54.7682,-101.865,-24.91,95,100,3.22,CA,1675042248
283,klyuchi,52.2667,79.1667,-19.03,99,69,3.32,RU,1675042249
284,leningradskiy,69.3833,178.4167,-20.8,97,61,2.71,RU,1675042250
285,bonavista,48.6499,-53.1147,-4.74,63,46,7.72,CA,1675042250
286,yaring,6.8662,101.3689,25.03,85,99,5.01,TH,1675042251
287,kahului,20.8947,-156.47,23.8,79,40,4.12,US,1675042252
288,avera,33.194,-82.5271,9.65,97,100,2.1,US,1675042252
289,russell,32.3502,-85.1999,15.6,94,100,3.6,US,1675042253
290,broken hill,-31.95,141.4333,25.92,51,39,6.34,AU,1675042254
291,coihaique,-45.5752,-72.0662,19.97,60,20,3.09,CL,1675042256
292,nouadhibou,20.931,-17.0347,15.99,72,93,8.75,MR,1675042256
293,vardo,70.3705,31.1107,-1.01,93,72,8.23,NO,1675042257
294,yarim,14.298,44.3779,9.12,77,11,0.44,YE,1675042257
295,mandiana,10.6333,-8.6833,22.99,18,44,2.29,GN,1675042258
296,enger,52.1333,8.5667,3.21,87,100,6.71,DE,1675042075
297,muriwai beach,-36.8167,174.45,20.31,92,100,5.74,NZ,1675042259
298,kholm,59.2667,32.85,-1.53,93,100,5.31,RU,1675042260
299,mweka,-4.85,21.5667,19.2,99,100,1.38,CD,1675042261
300,balkhash,46.844,74.9804,-20.66,77,0,6.0,KZ,1675042262
301,sembe,1.6481,14.5806,21.52,90,89,1.32,CG,1675042263
302,lavrentiya,65.5833,-171.0,-6.65,95,100,6.86,RU,1675042028
303,fortuna,40.5982,-124.1573,12.19,50,0,4.12,US,1675042189
304,lebedinyy,58.5167,125.5167,-25.21,88,14,2.57,RU,1675042264
305,safidon,29.4167,76.6667,11.06,94,100,5.98,IN,1675042265
306,wick,58.4333,-3.0833,5.03,81,75,13.38,GB,1675042267
307,vao,-22.6667,167.4833,24.81,72,13,4.4,NC,1675042049
308,ancud,-41.8697,-73.8203,16.08,92,47,2.1,CL,1675042267
309,kurumkan,54.3,110.3,-16.75,99,92,0.22,RU,1675042268
310,kununurra,-15.7667,128.7333,27.99,83,75,3.6,AU,1675042010
311,amazar,53.858,120.875,-21.5,91,30,1.03,RU,1675042270
312,iqaluit,63.7506,-68.5145,-36.15,75,75,1.54,CA,1675042271
313,gladstone,-23.85,151.25,29.96,51,20,4.12,AU,1675042272
314,antigonish,45.6169,-61.9986,1.19,77,100,7.01,CA,1675042272
315,shache,38.4167,77.2406,-9.0,87,100,0.95,CN,1675042273
316,coolum beach,-26.5333,153.1,30.74,67,94,4.24,AU,1675042274
317,ostrovnoy,68.0531,39.5131,-3.41,89,100,10.12,RU,1675042276
318,genhe,50.7833,121.5167,-22.25,96,96,0.91,CN,1675042278
319,guerrero negro,27.9769,-114.0611,15.1,64,0,4.43,MX,1675042061
320,lucea,18.451,-78.1736,25.92,77,4,4.97,JM,1675042279
321,nanortalik,60.1432,-45.2371,-4.82,84,100,3.52,GL,1675042280
322,impfondo,1.6381,18.0667,22.16,88,99,2.46,CG,1675042281
323,hutchinson,38.0608,-97.9298,-9.67,61,100,5.14,US,1675042173
324,vanavara,60.34,102.2797,-16.73,96,99,3.36,RU,1675042039
325,saint-augustin,51.226,-58.6502,-19.55,82,100,2.77,CA,1675042283
326,puerto narino,-3.7703,-70.3831,22.69,98,100,1.38,CO,1675042284
327,sao filipe,14.8961,-24.4956,21.34,69,93,6.49,CV,1675042285
328,prince rupert,54.3161,-130.3201,1.83,59,0,4.12,CA,1675042242
329,tolon,37.5202,22.8586,9.9,74,87,1.65,GR,1675042286
330,kalmunai,7.4167,81.8167,23.38,87,65,3.66,LK,1675042286
331,harsin,34.2721,47.5861,3.45,72,85,2.52,IR,1675042287
332,garliava,54.8167,23.8667,0.99,97,100,7.81,LT,1675042287
333,valkeala,60.9401,26.7979,0.22,100,100,6.69,FI,1675042288
334,kletskaya,49.3145,43.0584,-2.28,86,99,3.51,RU,1675042288
335,hasaki,35.7333,140.8333,7.94,59,26,5.02,JP,1675042289
336,mount isa,-20.7333,139.5,32.87,46,75,4.63,AU,1675042290
337,tuatapere,-46.1333,167.6833,20.97,67,100,3.25,NZ,1675042290
338,ripon,54.1352,-1.5212,6.99,70,46,8.23,GB,1675042143
339,kruisfontein,-34.0033,24.7314,14.94,79,39,1.9,ZA,1675042291
340,severnyy,50.677,36.5532,-7.98,93,68,2.0,RU,1675042292
341,benguela,-12.5763,13.4055,25.51,83,100,2.06,AO,1675042293
342,te anau,-45.4167,167.7167,23.52,36,100,1.37,NZ,1675042293
343,vila franca do campo,37.7167,-25.4333,12.23,77,45,3.84,PT,1675042083
344,pizhma,57.8642,47.1171,-11.47,96,98,2.88,RU,1675042294
345,husavik,66.0449,-17.3389,-4.86,77,100,6.68,IS,1675042295
346,port hardy,50.6996,-127.4199,-0.9,93,20,1.03,CA,1675042295
347,razole,16.4833,81.8333,21.54,85,86,2.27,IN,1675042296
348,nurota,40.5614,65.6886,1.86,58,100,2.64,UZ,1675042297
349,sisimiut,66.9395,-53.6735,-8.94,80,100,3.24,GL,1675042298
350,doha,25.2867,51.5333,13.17,62,0,1.54,QA,1675042213
351,geraldton,-28.7667,114.6,34.23,38,0,6.69,AU,1675042298
352,tecolutla,20.4833,-97.0167,24.92,85,0,6.82,MX,1675042299
353,poum,-20.2333,164.0167,26.54,71,1,6.02,NC,1675042072
354,caronport,50.4501,-105.8179,-22.9,91,36,4.48,CA,1675042300
355,biskamzha,53.4497,89.5272,-13.28,94,100,3.25,RU,1675042301
356,caravelas,-17.7125,-39.2481,24.28,85,1,2.33,BR,1675042030
357,mangai,-4.05,19.5333,20.88,92,97,0.54,CD,1675042302
358,soyaux,45.65,0.2,-1.29,93,14,0.0,FR,1675042303
359,enid,36.3956,-97.8784,-4.95,69,100,8.23,US,1675042035
360,talaya,61.3833,152.75,-21.56,95,100,3.79,RU,1675042305
361,kondol,52.8189,45.058,-3.74,95,100,4.68,RU,1675042306
362,surgut,61.25,73.4167,-13.9,84,20,1.0,RU,1675042306
363,road town,18.4167,-64.6167,25.05,88,40,3.6,VG,1675042059
364,bloemhof,-27.6469,25.607,19.6,58,13,5.54,ZA,1675042307
365,rajkot,22.3,70.7833,12.98,88,0,3.09,IN,1675042251
366,carson city,39.1638,-119.7674,-2.31,75,100,4.63,US,1675042308
367,ahuimanu,21.4447,-157.8378,22.84,89,100,5.14,US,1675042309
368,puerto carreno,6.189,-67.4859,27.09,44,45,3.92,CO,1675042309
369,susangerd,31.5608,48.1831,13.02,59,65,4.42,IR,1675042310
370,mirnyy,62.5353,113.9611,-25.08,98,100,2.7,RU,1675042311
371,ayagoz,47.9714,80.4392,-23.33,93,6,2.72,KZ,1675042311
372,abha,18.2164,42.5053,9.9,93,0,0.0,SA,1675042281
373,maceio,-9.6658,-35.7353,24.69,88,20,2.06,BR,1675042312
374,komsomolskiy,40.4272,71.7189,-0.6,80,100,1.03,UZ,1675042314
375,kayerkan,69.3497,87.7602,-21.8,99,100,0.28,RU,1675042315
376,shingu,33.7333,135.9833,8.4,57,25,7.33,JP,1675042316
377,gambela,8.25,34.5833,26.66,30,64,1.46,ET,1675042316
378,lac du bonnet,50.2536,-96.0612,-31.23,100,48,1.76,CA,1675042317
379,los llanos de aridane,28.6585,-17.9182,12.86,77,100,4.63,ES,1675042318
380,yining,29.0361,114.5636,10.27,31,0,0.62,CN,1675042318
381,zhangye,38.9342,100.4517,-4.18,31,0,1.0,CN,1675042319
382,alugan,12.2188,125.4808,24.57,93,100,7.34,PH,1675042319
383,jasper,37.2001,-94.3502,-6.05,93,100,6.17,US,1675042320
384,watsa,3.0372,29.5355,17.05,61,27,1.52,CD,1675042321
385,panalingaan,8.7842,117.4231,28.14,70,96,2.66,PH,1675042323
386,sioux lookout,50.1001,-91.917,-23.96,77,20,2.06,CA,1675042326
387,tocopilla,-22.092,-70.1979,21.63,78,100,0.15,CL,1675042314
388,carballo,43.213,-8.691,6.59,82,56,1.7,ES,1675042328
389,talcahuano,-36.7167,-73.1167,16.82,82,0,9.77,CL,1675042328
390,pechora,65.1472,57.2244,-12.66,94,100,5.29,RU,1675042330
391,korla,41.7597,86.1469,-9.86,81,96,2.89,CN,1675041798
392,manali,13.1667,80.2667,25.05,78,93,4.38,IN,1675042331
393,banda aceh,5.5577,95.3222,26.41,83,30,3.25,ID,1675042334
394,east london,-33.0153,27.9116,18.3,67,85,2.38,ZA,1675042023
395,marawi,7.9986,124.2928,22.03,90,100,0.47,PH,1675042335
396,vanimo,-2.6741,141.3028,28.56,74,75,1.66,PG,1675042336
397,nosy varika,-20.5833,48.5333,24.89,80,28,1.18,MG,1675042337
398,port macquarie,-31.4333,152.9167,25.5,80,100,5.22,AU,1675042227
399,alice springs,-23.7,133.8833,24.75,88,100,2.06,AU,1675042338
400,coahuayana,18.7333,-103.6833,22.3,86,0,1.13,MX,1675042340
401,kadnikov,59.5022,40.338,-7.76,96,100,3.76,RU,1675042341
402,grand gaube,-20.0064,57.6608,25.21,89,100,2.08,MU,1675042342
403,mount gambier,-37.8333,140.7667,21.34,44,100,4.08,AU,1675042345
404,boralday,43.3578,76.8594,-12.08,85,40,2.0,KZ,1675042346
405,naze,28.3667,129.4833,12.51,54,28,6.05,JP,1675041762
406,kempele,64.9131,25.5034,-0.99,93,100,5.66,FI,1675042347
407,tilichiki,60.4667,166.1,-0.96,90,100,11.6,RU,1675042058
408,malakal,9.5334,31.6605,25.74,22,81,2.5,SS,1675042348
409,rawson,-43.3002,-65.1023,33.08,18,0,14.68,AR,1675042349
410,piste,20.7,-88.5833,25.03,73,40,2.57,MX,1675042350
411,tungor,53.3808,142.9564,-22.5,83,37,6.46,RU,1675042351
412,altoona,40.5187,-78.3947,6.87,87,100,0.89,US,1675042130
413,uddevalla,58.3478,11.9424,5.6,83,46,7.95,SE,1675042352
414,cidreira,-30.1811,-50.2056,23.02,90,3,1.16,BR,1675042038
415,sar-e pul,35.8333,66.1667,-2.57,63,51,3.59,AF,1675042352
416,bam,29.106,58.357,8.12,41,0,1.76,IR,1675042353
417,bambous virieux,-20.3428,57.7575,25.12,94,20,1.54,MU,1675042008
418,port augusta,-32.5,137.7667,22.64,68,100,7.38,AU,1675042354
419,hashtrud,37.4779,47.0508,-2.87,94,96,0.5,IR,1675042355
420,tessalit,20.1986,1.0114,11.47,12,33,3.82,ML,1675042355
421,ilhabela,-23.7781,-45.3581,24.54,87,44,2.08,BR,1675042356
422,kudahuvadhoo,2.6708,72.8944,26.52,75,68,1.64,MV,1675042356
423,terney,45.0503,136.6092,-12.53,49,17,4.97,RU,1675042357
424,lower hutt,-41.2167,174.9167,24.95,63,75,6.17,NZ,1675042358
425,kattivakkam,13.2167,80.3167,25.05,78,97,4.61,IN,1675042358
426,gorele,41.0308,39.0031,6.97,85,100,1.26,TR,1675042359
427,domna,51.8971,113.1573,-21.65,76,100,1.0,RU,1675042359
428,rutland,43.6167,-73.0162,5.99,78,100,2.57,US,1675042360
429,derzhavinsk,51.1,66.3167,-23.03,98,10,2.51,KZ,1675042360
430,ust-nera,64.5667,143.2,-29.0,99,100,1.51,RU,1675042361
431,felanitx,39.4696,3.1483,7.75,76,39,4.76,ES,1675042362
432,vallenar,-28.5708,-70.7581,20.66,61,0,1.54,CL,1675042363
433,praia da vitoria,38.7333,-27.0667,13.2,82,75,5.34,PT,1675042348
434,bousse,12.6606,-1.8922,19.26,7,87,4.0,BF,1675042364
435,pesaro,43.9036,12.8903,5.11,77,100,2.94,IT,1675042365
436,klaksvik,62.2266,-6.589,2.51,81,99,15.71,FO,1675042044
437,cairns,-16.9167,145.7667,32.81,92,75,2.06,AU,1675042288
438,san vicente,-26.6167,-54.1333,19.01,98,86,1.18,AR,1675042366
439,cayenne,4.9333,-52.3333,25.02,83,100,2.06,GF,1675042367
440,aksu,41.1231,80.2644,-10.68,87,100,1.41,CN,1675042367
441,boa vista,2.8197,-60.6733,27.99,61,75,5.14,BR,1675042368
442,ingham,42.6,-84.3833,-3.8,86,100,1.54,US,1675042368
443,anito,12.4497,125.2886,24.33,96,100,5.29,PH,1675042369
444,nicolas bravo,18.45,-88.9167,20.3,93,6,1.18,MX,1675042369
445,necochea,-38.5473,-58.7368,19.76,57,0,7.17,AR,1675042127
446,gat,31.61,34.7642,14.67,100,0,0.16,IL,1675042083
447,itoman,26.1247,127.6694,15.22,55,75,6.69,JP,1675042039
448,padang,-0.9492,100.3543,26.03,80,91,2.37,ID,1675042060
449,aykhal,66.0,111.5,-32.76,100,97,1.31,RU,1675042025
450,stornoway,58.2093,-6.3865,5.52,83,75,14.92,GB,1675042371
451,hervey bay,-25.2986,152.8535,25.96,64,49,3.1,AU,1675042372
452,lorengau,-2.0226,147.2712,29.47,68,68,1.96,PG,1675042071
453,zhezkazgan,47.8043,67.7144,-21.01,84,0,4.0,KZ,1675042372
454,lazaro cardenas,17.9583,-102.2,24.82,76,0,1.97,MX,1675042033
455,amroha,28.9167,78.4667,12.16,84,100,3.28,IN,1675042373
456,jaciara,-15.9653,-54.9683,21.42,92,88,1.22,BR,1675042374
457,colares,38.7992,-9.4469,8.2,60,3,2.68,PT,1675042374
458,tarko-sale,64.9225,77.785,-28.82,100,69,3.22,RU,1675042375
459,qingdao,36.0986,120.3719,1.78,48,0,1.0,CN,1675042375
460,namibe,-15.1961,12.1522,23.67,78,100,1.67,AO,1675042376
461,wanning,18.8003,110.3967,16.52,52,84,4.07,CN,1675042376
462,ikot ekpene,5.1794,7.7108,23.22,80,89,1.63,NG,1675042377
463,chaozhou,23.6651,116.6379,9.92,31,0,1.11,CN,1675042378
464,killam,52.7834,-111.8518,-19.03,71,100,5.66,CA,1675042378
465,elizabeth city,36.2946,-76.2511,14.01,72,0,2.7,US,1675042379
466,tura,25.5198,90.2201,18.51,53,4,0.74,IN,1675042380
467,formosa,-26.1775,-58.1781,29.99,66,0,0.0,AR,1675042293
468,sao miguel do araguaia,-13.275,-50.1628,22.21,89,100,1.18,BR,1675042381
469,nemuro,43.3236,145.575,-5.74,49,3,1.28,JP,1675042029
470,faya,18.3851,42.4509,10.06,90,40,1.44,SA,1675042383
471,camacha,33.0833,-16.3333,11.68,67,40,3.09,PT,1675042384
472,lata,40.1629,-8.3327,4.95,77,87,1.75,PT,1675042385
473,scottsbluff,41.8666,-103.6672,-17.47,79,100,4.63,US,1675042386
474,ishigaki,24.3448,124.1572,15.07,58,40,5.66,JP,1675042387
475,fushe-arrez,42.0622,20.0167,2.17,85,16,2.83,AL,1675042388
476,chumikan,54.7183,135.315,-25.22,85,19,11.1,RU,1675042390
477,back mountain,41.3359,-75.9963,6.76,75,100,2.46,US,1675042391
478,kloulklubed,7.0419,134.2556,27.28,75,100,6.4,PW,1675042392
479,dingle,10.9995,122.6711,24.09,95,100,4.77,PH,1675042393
480,richards bay,-28.783,32.0377,19.69,79,100,3.78,ZA,1675042394
481,yamada,39.4667,141.95,1.72,44,79,1.63,JP,1675042395
482,nioro,13.35,-15.75,20.49,11,92,2.72,GM,1675042396
483,katsuura,35.1333,140.3,8.64,52,6,6.99,JP,1675042396
484,lasa,46.6166,10.7002,-4.8,47,8,2.31,IT,1675042398
485,nagato,34.3833,131.2,5.81,48,5,8.1,JP,1675042399
486,callaway,30.153,-85.5699,20.53,96,100,5.14,US,1675042212
487,qinzhou,21.95,108.6167,15.09,23,3,2.21,CN,1675042402
488,katherine,-14.4667,132.2667,30.61,64,100,3.17,AU,1675042403
489,borogontsy,62.6683,131.1683,-43.66,98,70,0.73,RU,1675042403
490,palmer,42.1584,-72.3287,8.23,62,100,3.6,US,1675042404
491,tomatlan,19.9333,-105.25,21.76,74,0,0.12,MX,1675042405
492,cerrito,6.8432,-72.694,9.93,75,100,1.73,CO,1675042406
493,fort nelson,58.8053,-122.7002,-9.47,81,75,2.06,CA,1675042240
494,skibbereen,51.55,-9.2667,7.84,84,70,3.79,IE,1675042407
495,gbarnga,6.9956,-9.4722,21.06,97,59,1.01,LR,1675042408
496,maues,-3.3836,-57.7186,22.75,96,100,0.33,BR,1675042408
497,akom,2.6678,12.7109,21.94,81,100,1.59,CM,1675042409
498,araguacu,-12.9306,-49.8264,22.18,90,78,0.38,BR,1675042411
499,mersing,2.4312,103.8405,24.95,88,40,7.2,MY,1675042411
500,cockburn town,21.4612,-71.1419,25.0,74,9,10.0,TC,1675042351
501,freetown,8.484,-13.2299,25.84,83,20,4.12,SL,1675042143
502,ukiah,39.1502,-123.2078,11.94,33,0,2.57,US,1675042021
503,san fernando,15.0286,120.6898,25.85,58,6,3.34,PH,1675042381
504,union city,37.5958,-122.0192,9.36,79,100,5.66,US,1675042413
505,nadym,65.5333,72.5167,-22.95,96,100,4.84,RU,1675042363
506,taywarah,33.35,64.4167,-13.56,96,95,2.16,AF,1675042414
507,zhigansk,66.7697,123.3711,-44.6,99,76,3.11,RU,1675042415
508,kuusankoski,60.907,26.6244,0.29,99,100,6.69,FI,1675042415
509,cortez,37.3489,-108.5859,-0.58,59,0,2.06,US,1675042276
510,teresopolis,-22.4122,-42.9656,18.98,94,100,1.27,BR,1675042416
511,palmas bellas,9.2319,-80.0867,25.7,74,100,5.22,PA,1675042417
512,cartagena del chaira,1.3349,-74.8429,23.43,53,24,1.01,CO,1675042346
513,najran,17.4924,44.1277,10.36,64,99,0.55,SA,1675042274
514,shelburne,44.0787,-80.2041,-8.56,92,91,3.51,CA,1675042240
515,yaypan,40.3758,70.8156,0.96,58,100,1.38,UZ,1675042418
516,miquelon,47.0975,-56.3814,-3.0,60,100,4.39,PM,1675042419
517,liverpool,53.4106,-2.9779,7.94,76,20,8.75,GB,1675042419
518,bunia,1.5667,30.25,19.35,65,99,1.39,CD,1675042420
519,huarmey,-10.0681,-78.1522,22.12,82,69,2.57,PE,1675042420
520,gunzenhausen,49.1,10.75,-1.57,85,70,5.01,DE,1675042421
521,pak phanang,8.3511,100.202,25.01,75,99,5.2,TH,1675042421
522,oudenburg,51.1851,3.0085,7.97,86,40,8.23,BE,1675042422
523,chara,56.9064,118.2631,-22.85,78,80,0.08,RU,1675042423
524,tanah merah,5.8,102.15,26.06,96,100,0.72,MY,1675042423
525,south venice,27.0531,-82.4243,22.28,91,0,3.58,US,1675042423
526,andenes,69.3143,16.1194,-0.01,69,20,6.17,NO,1675042425
527,muros,42.7762,-9.0603,6.16,76,84,4.43,ES,1675042425
528,akyab,20.15,92.9,21.4,63,2,2.42,MM,1675042426
529,port hedland,-20.3167,118.5667,30.03,79,40,0.0,AU,1675042291
530,clyde river,70.4692,-68.5914,-26.61,94,100,3.47,CA,1675042018
531,lalmohan,22.3384,90.7419,18.34,60,20,3.03,BD,1675042427
532,kieta,-6.2167,155.6333,29.07,75,85,3.51,PG,1675042427
533,bandarbeyla,9.4942,50.8122,23.39,64,92,6.91,SO,1675042428
534,am timan,11.0297,20.2827,26.0,17,98,2.29,TD,1675042428
535,copiapo,-27.3667,-70.3333,14.83,65,5,1.33,CL,1675042429
536,la ronge,55.1001,-105.2842,-22.86,70,40,3.09,CA,1675042429
537,meadow lake,34.8014,-106.5436,9.33,25,0,4.83,US,1675042430
538,rocha,-34.4833,-54.3333,20.34,87,84,3.42,UY,1675042226
539,balabac,7.9868,117.0645,27.32,78,92,6.78,PH,1675042431
540,taoudenni,22.6783,-3.9836,13.84,15,48,4.95,ML,1675042432
541,lebyazhye,55.2689,66.4947,-17.34,97,42,3.79,RU,1675042432
542,ahar,38.4774,47.0699,-1.5,93,90,2.04,IR,1675042433
543,jurm,36.8648,70.8342,-3.46,63,56,2.15,AF,1675042433
544,baiao,-2.7906,-49.6717,22.22,99,100,1.11,BR,1675042434
545,ambilobe,-13.2,49.05,23.41,93,63,0.3,MG,1675042434
546,urumqi,43.801,87.6005,-19.47,85,57,2.0,CN,1675042435
547,evanston,42.0411,-87.6901,-4.0,76,100,3.6,US,1675042431
548,dubrovka,53.6907,33.5071,-3.65,89,98,5.1,RU,1675042436
549,ust-ilimsk,58.0006,102.6619,-13.39,93,100,3.15,RU,1675042436
550,cabra,37.4725,-4.4421,3.43,77,8,1.5,ES,1675042437
551,celestun,20.8667,-90.4,25.78,66,0,4.08,MX,1675042437
552,lubu,23.1742,112.2809,14.35,33,6,0.71,CN,1675042437
553,nyurba,63.2842,118.3319,-35.02,100,96,1.43,RU,1675042438
554,saint anthony,45.0205,-93.218,-16.61,70,0,4.63,US,1675042244
555,inta,66.0317,60.1659,-11.37,94,100,6.66,RU,1675042439
556,esna,25.2934,32.554,17.01,31,0,1.11,EG,1675042439
557,naifaru,5.4444,73.3657,26.17,72,27,2.21,MV,1675042440
558,itaituba,-4.2761,-55.9836,23.4,93,100,0.3,BR,1675042246
559,marivan,35.5219,46.176,3.63,89,100,1.9,IR,1675042440
560,port blair,11.6667,92.75,28.02,69,75,3.6,IN,1675042026
561,pandamatenga,-18.5278,25.627,18.08,82,77,1.36,BW,1675042441
562,paamiut,61.994,-49.6678,-6.74,69,100,5.9,GL,1675042443
563,vani,42.0832,42.5216,5.83,93,75,1.54,GE,1675042443
564,mushie,-3.0167,16.9,21.56,90,100,1.04,CD,1675042445
565,susanville,40.4163,-120.653,-2.88,56,0,3.6,US,1675042235
566,ayna,-12.65,-73.9167,15.56,91,98,0.81,PE,1675042447
567,naco,31.3347,-109.9483,12.67,22,0,5.78,MX,1675042448
568,inhambane,-23.865,35.3833,25.13,84,77,5.89,MZ,1675042450
569,la crosse,43.8014,-91.2396,-15.05,64,0,4.12,US,1675042184
570,henties bay,-22.116,14.2845,17.47,83,37,4.35,NA,1675042041
571,beringovskiy,63.05,179.3167,-2.46,97,100,6.33,RU,1675042453
572,marshall,34.3834,-86.3333,10.86,92,100,0.0,US,1675042453
573,margate,51.3813,1.3862,6.04,88,49,1.79,GB,1675042454
574,severodvinsk,64.5635,39.8302,-1.94,91,100,4.64,RU,1675042455
575,weinan,34.5036,109.5089,4.19,22,0,0.98,CN,1675042455
